Latitude,Longitude,Time,Date,Number of Sats,GPS Speed (Kn),GPS True Heading,GPS Magnetic Variation,HDOP,C Magnetic Heading,C True Heading,Pitch Angle,Roll Angle,C Inside Temp (c),DFS Depth (m),DTB Height (m),Total Water Column (m),Batt Percent,Power Watts,Watt-Hours,Batt Volts,Batt Ampers,Batt State,Time to Empty,Current Step,Dist To Next (m),Next Speed (kn),Vehicle Speed (kn),Motor Speed CMD,Next Heading,Next Long,Next Lat,Next Depth (m),Depth Goal (m),Vehicle State,Error State,Distance to Track (m),Fin Pitch R,Fin Pitch L,Pitch Goal,Fin Yaw T,Fin Yaw B,Yaw Goal,Fin Roll,DVL-Depth (m),DVL -Altitude (m),DVL -Water Column (m),DVL-FixType,DVL-FixQuality,DVL-Temperature,Conductivity (mmhos/cm),Temperature (c),Salinity (ppt),Sound Speed (m/s),Date m/d/y   ,Time hh:mm:ss,Temp C,SpCond mS/cm,Sal ppt,Depth feet,pH,pH mV,Turbid+ NTU,Chl ug/L,BGA-PC cells/mL,ODOsat %,ODO mg/L,Battery volts,ROSEM Command Type
25.912781,-80.13788417,43:39.1,2/4/22,4,0.428,39.24,-7.155757217,3.06,92.1,86.48,1.19,-3.84,27.2,0,2.57,2.57,91,22,504.4,16.3,-1.3,D,1546.7,0,4.746,1,0,128,156.22,-80.13786503,25.91274194,0,0,1,N,3.04858,64,64,11,5,5,266.5862,0,9999.99,2.58,2.707,2,9,26.6,0,26.60000038,33.65,1536.64614,2/4/22,16:18:47,22.56,51.18,33.65,1.195,7.75,-43.7,-3.5,-4,-2976,91,6.48,12.5,
25.9127845,-80.13788383,43:40.2,2/4/22,4,0.666,39.24,-7.155757217,3.06,92.5,86.85,1.07,-4.51,27.2,0,2.58,2.58,91,22,504.4,16.3,-1.3,D,1535.3,0,5.092,1,0,128,158.33,-80.13786503,25.91274194,0,0,1,N,3.04858,63,63,11,250,250,263.97,0,9999.99,2.59,2.717,2,9,26.5,0,26.5,35.08,1537.94412,2/4/22,16:18:48,22.61,53.11,35.08,1.188,7.75,-43.7,-4.3,-5.7,-1727,90.6,6.39,12.5,
25.91278316,-80.1378841,43:41.2,2/4/22,4,0.893,39.24,-7.155757217,3.06,91.9,86.29,1.91,-3.25,27.3,0.02,2.58,2.6,91,22,504.4,16.3,-1.3,D,1535.3,1,16.385,1,0.04,160,103.24,-80.13772464,25.9127494,0,0,1,N,4.688158,68,68,11,234,234,112.9978,0,9999.99,2.59,2.717,2,9,26.5,0,26.5,33.47,1536.22527,2/4/22,16:18:49,22.59,50.94,33.47,1.178,7.75,-43.7,-4.6,-2.9,-2310,90.5,6.45,12.3,
25.91278284,-80.13788136,43:42.2,2/4/22,4,0.16,39.24,-7.155757217,3.06,93.3,87.6,0.3,-4.68,27.3,0.03,2.59,2.61,91,22,504.4,16.3,-1.3,D,1535.3,1,16.109,1,0.07,160,103.35,-80.13772464,25.9127494,0,0,1,N,4.636254,59,59,11,230,230,113.3416,0,9999.99,2.6,2.727,2,9,26.5,0,26.5,34.1,1536.8992,2/4/22,16:18:50,22.57,51.79,34.1,1.193,7.75,-43.7,-3.6,1.9,-1194,90.2,6.4,12.5,
25.91278368,-80.13788032,43:43.2,2/4/22,4,0.723,39.24,-7.155757217,3.06,92.8,87.13,1.88,-6.62,27.3,0.02,2.58,2.6,91,24,504.4,16.3,-1.4,D,1416.3,1,16.03,1,0.18,160,103.76,-80.13772464,25.9127494,0,0,1,N,4.723865,68,68,11,235,235,114.0106,0,9999.99,2.59,2.717,2,9,26.5,0,26.5,35.63,1538.53389,2/4/22,16:18:51,22.63,53.85,35.63,1.218,7.75,-43.7,-5.1,1.4,-143,89.9,6.32,12.4,
25.91278401,-80.13787764,43:44.3,2/4/22,4,0.82,39.24,-7.155757217,3.06,95.2,89.39,1.24,2.53,27.3,0.02,2.6,2.62,91,28,504.4,16.3,-1.7,D,1197.4,1,15.779,1,0.31,160,104.12,-80.13772464,25.9127494,0,0,1,N,4.744678,64,64,11,228,228,114.7384,0,9999.99,2.61,2.737,2,9,26.4,0,26.39999962,33.02,1535.51429,2/4/22,16:18:52,22.61,50.32,33.02,1.209,7.75,-43.7,-4.1,-1.8,-3018,89.6,6.4,12.6,
25.91277978,-80.13787271,43:45.3,2/4/22,4,0.402,39.24,-7.155757217,3.06,98.1,92.1,1.35,-5.26,27.3,0.02,2.66,2.68,91,28,504.4,16.3,-1.7,D,1197.4,1,15.19,1,0.47,160,102.85,-80.13772464,25.9127494,0,0,1,N,4.248868,64,64,11,212,212,113.2442,0,9999.99,2.67,2.797,2,9,26.4,0,26.39999962,33.99,1536.55075,2/4/22,16:18:53,22.58,51.64,33.99,1.185,7.75,-43.7,-4.2,-2.8,-5584,89.3,6.35,12.4,
25.91277536,-80.13786849,43:46.3,2/4/22,4,0.587,39.24,-7.155757217,3.06,101.3,95.08,1.46,-2.24,27.3,0.02,2.72,2.73,91,28,504.4,16.3,-1.7,D,1197.4,1,14.674,1,0.62,160,101.35,-80.13772464,25.9127494,0,0,1,N,3.737795,66,66,11,192,192,111.2806,0,9999.99,2.73,2.857,2,9,26.4,0,26.39999962,36.31,1539.03146,2/4/22,16:18:54,22.54,54.76,36.31,1.204,7.75,-43.7,-4,1.4,-1407,89,6.24,12.5,
25.9127745,-80.13786259,43:47.3,2/4/22,4,1.431,39.24,-7.155757217,3.05,104.2,97.78,1.8,-3,27.3,0.02,2.76,2.77,91,28,504.3,16.3,-1.7,D,1187.1,1,14.076,1,0.74,160,101.44,-80.13772464,25.9127494,0,0,1,N,3.60901,68,68,11,180,180,110.9109,0,9999.99,2.77,2.897,2,9,26.3,0,26.29999924,35.78,1538.23484,2/4/22,16:18:55,22.5,54.05,35.78,1.187,7.75,-43.8,-3.8,-2,-3947,88.7,6.24,12.5,
25.91276985,-80.13785559,43:48.3,2/4/22,4,1.186,39.24,-7.155757217,3.05,107.6,100.94,0.99,-2.82,27.3,0.01,2.8,2.8,91,28,504.3,16.3,-1.7,D,1187.1,1,13.293,1,0.86,160,99.85,-80.13772464,25.9127494,0,0,1,N,3.054653,63,63,11,153,153,107.5183,0,9999.99,2.81,2.937,2,9,26.3,0,26.29999924,35.66,1538.1061,2/4/22,16:18:56,22.49,53.89,35.66,1.197,7.75,-43.9,-3.8,0.4,-3197,88.4,6.23,12.5,
25.91276887,-80.13784931,43:49.3,2/4/22,4,0.811,39.24,-7.155757217,3.05,109,102.24,1.05,-2.9,27.4,0.01,2.93,2.94,91,28,504.3,16.3,-1.7,D,1187.1,1,12.656,1,0.97,160,99.85,-80.13772464,25.9127494,0,0,1,N,2.913475,63,63,11,145,145,106.6301,0,9999.99,2.94,3.067,2,9,26.2,0,26.29999924,37.75,1540.3433,2/4/22,16:18:57,22.49,56.68,37.75,1.166,7.75,-43.7,-4.6,-3.9,-2401,88.2,6.14,12.5,
25.91276565,-80.13784388,43:50.3,2/4/22,4,0.578,39.24,-7.155757217,3.05,110.6,103.72,1.11,-1.68,27.4,0.01,3.05,3.06,91,28,504.3,16.3,-1.7,D,1187.1,1,12.062,1,1.05,160,98.61,-80.13772464,25.9127494,0,0,1,N,2.525453,64,64,11,130,130,104.1415,0,9999.99,3.06,3.187,2,9,26.2,0,26.20000076,37.02,1539.33273,2/4/22,16:18:59,22.44,55.71,37.02,1.205,7.75,-43.7,-4.8,-0.6,-3542,87.7,6.14,12.4,
25.91276247,-80.13783863,43:51.3,2/4/22,4,1.244,39.24,-7.155757217,3.05,110.7,103.81,1.1,-1.07,27.4,0.01,3.2,3.21,91,28,504.3,16.3,-1.7,D,1206.2,1,11.494,1,1.15,160,97.26,-80.13772464,25.9127494,0,0,1,N,2.14122,64,64,11,118,118,101.6018,0,9999.99,3.21,3.337,2,9,26.1,0,26.20000076,37.02,1539.33273,2/4/22,16:18:59,22.44,55.71,37.02,1.205,7.75,-43.7,-4.8,-0.6,-3542,87.7,6.14,12.4,
25.912759,-80.13783204,43:52.3,2/4/22,4,1.521,39.24,-7.155757217,3.05,110.6,103.72,0.97,-2.6,27.4,0.01,3.25,3.26,91,28,504.3,16.3,-1.7,D,1206.2,1,10.794,1,1.19,160,95.67,-80.13772464,25.9127494,0,0,1,N,1.716599,63,63,11,107,107,98.72919,0,9999.99,3.26,3.387,2,9,26.1,0,26.10000038,38.57,1540.76444,2/4/22,16:19:00,22.47,57.78,38.57,1.191,7.75,-43.7,-4.7,-2.1,-1097,87.7,6.08,12.7,
25.91275442,-80.13782418,43:53.3,2/4/22,4,1.287,39.24,-7.155757217,3.05,110.2,103.35,0.69,-3.02,27.4,0.01,3.24,3.25,91,28,504.3,16.3,-1.7,D,1206.2,1,9.971,1,1.23,160,93.21,-80.13772464,25.9127494,0,0,1,N,1.164092,61,61,11,93,93,94.89819,0,9999.99,3.25,3.377,2,9,26,0,26,38.03,1539.95577,2/4/22,16:19:02,22.45,57.06,38.03,1.214,7.75,-43.7,-3.9,-0.8,-5916,87.1,6.05,12.6,
25.91274941,-80.1378161,43:54.3,2/4/22,4,1.268,39.24,-7.155757217,3.05,108.2,101.5,1.29,-2.07,27.4,0.01,3.25,3.26,91,28,504.3,16.3,-1.7,D,1200.6,1,9.147,1,1.27,160,90.01,-80.13772464,25.9127494,0,0,1,N,0.5603398,65,65,11,84,84,90.62566,0,9999.99,3.26,3.387,2,9,26,0,26,38.57,1540.5352,2/4/22,16:19:03,22.45,57.78,38.57,1.191,7.75,-43.7,-4.9,4.1,-3741,86.8,6.02,12.5,
25.91274553,-80.13780779,43:55.3,2/4/22,4,1.508,39.24,-7.155757217,3.05,107.2,100.57,1,-3,27.4,0,3.28,3.29,91,28,504.3,16.3,-1.7,D,1200.6,1,8.328,1,1.34,159,87.03,-80.13772464,25.9127494,0,0,1,N,0.4388277,63,63,11,76,76,87.70406,0,9999.99,3.29,3.417,2,9,25.9,0,25.89999962,37.79,1539.46691,2/4/22,16:19:04,22.41,56.74,37.79,1.248,7.75,-43.7,-3.6,2.5,-2975,86.5,6.03,12.6,
25.91274318,-80.13780044,43:56.4,2/4/22,4,1.373,39.24,-7.155757217,3.05,105.1,98.62,0.93,-2.16,27.4,0.01,3.28,3.29,91,28,504.3,16.3,-1.7,D,1200.6,1,7.613,1,1.35,159,84.79,-80.13772464,25.9127494,0,0,1,N,0.2260465,63,63,11,73,73,85.00036,0,9999.99,3.29,3.417,2,9,25.9,0,25.89999962,37.79,1539.46691,2/4/22,16:19:04,22.41,56.74,37.79,1.248,7.75,-43.7,-3.6,2.5,-2975,86.5,6.03,12.6,
25.91274153,-80.13779467,43:57.4,2/4/22,5,1.136,39.24,-7.155757217,1.78,101.8,95.55,0.88,0.01,27.5,0.01,3.26,3.27,91,28,504.3,16.3,-1.7,D,1200.6,1,7.059,1,1.38,159,82.88,-80.13772464,25.9127494,0,0,1,N,0.4426404,63,63,11,77,77,83.45181,0,9999.99,3.27,3.397,2,9,25.8,0,25.79999924,37.12,1538.51632,2/4/22,16:19:06,22.42,55.84,37.12,1.182,7.75,-43.8,-5,-0.8,-3565,86,6.02,12.6,
25.91274139,-80.1377863,43:58.4,2/4/22,5,0.904,39.24,-7.155757217,1.78,99.3,93.22,0.9,-1.11,27.5,0.01,3.25,3.26,91,28,504.3,16.3,-1.7,D,1213.1,1,6.232,1,1.38,158,81.78,-80.13772464,25.9127494,0,0,1,N,0.5076824,62,62,11,86,86,82.98748,0,9999.99,3.26,3.387,2,9,25.8,0,25.79999924,38.19,1539.66585,2/4/22,16:19:07,22.44,57.27,38.19,1.201,7.75,-43.8,-4,0.2,-4583,85.7,5.96,12.5,
25.9127406,-80.13778084,43:59.4,2/4/22,5,1.219,76.84,-7.155757217,1.78,96.3,90.42,1.17,-1.4,27.5,0.01,3.25,3.26,91,28,504.3,16.3,-1.7,D,1213.1,2,23.245,1,1.34,158,88.95,-80.13754847,25.91274442,0,0,1,N,1.155541,64,64,11,114,114,87.07507,0,9999.99,3.26,3.387,2,9,25.8,0,25.79999924,38.19,1539.66585,2/4/22,16:19:07,22.44,57.27,38.19,1.201,7.75,-43.8,-4,0.2,-4583,85.7,5.96,12.5,
25.91274201,-80.13777201,44:00.4,2/4/22,5,1.445,85.97,-7.155757217,1.78,94.1,88.36,1.11,0.45,27.4,0.01,3.25,3.26,91,28,504.3,16.3,-1.7,D,1213.1,2,22.359,1,1.33,157,89.31,-80.13754847,25.91274442,0,0,1,N,0.9731283,64,64,11,124,124,87.54214,0,9999.99,3.26,3.387,2,9,25.7,0,25.70000076,37.45,1538.63818,2/4/22,16:19:08,22.42,56.29,37.45,1.224,7.75,-43.8,-3.7,-2.9,-2978,85.4,5.96,12.6,
25.91274294,-80.13776397,44:01.4,2/4/22,5,1.348,86.93,-7.155757217,1.78,92.8,87.13,1.24,-3.3,27.4,0.01,3.25,3.26,91,27,504.3,16.3,-1.6,D,1253.5,2,21.554,1,1.31,157,89.56,-80.13754847,25.91274442,0,0,1,N,0.8477005,64,64,11,128,128,87.84058,0,9999.99,3.26,3.387,2,9,25.7,0,25.70000076,38.87,1540.16519,2/4/22,16:19:10,22.43,58.17,38.87,1.205,7.75,-44.1,-4.3,0.2,-2267,85,5.88,12.5,
25.91274414,-80.13775569,44:02.4,2/4/22,5,0.877,86.93,-7.155757217,1.78,92.4,86.76,1.2,-1.15,27.5,0.01,3.23,3.24,91,27,504.3,16.3,-1.6,D,1253.5,2,20.725,1,1.29,157,89.91,-80.13754847,25.91274442,0,0,1,N,0.68924,64,64,11,134,134,88.33504,0,9999.99,3.24,3.367,2,9,25.7,0,25.70000076,38.87,1540.16519,2/4/22,16:19:10,22.43,58.17,38.87,1.205,7.75,-44.1,-4.3,0.2,-2267,85,5.88,12.5,
25.91274537,-80.13774772,44:03.4,2/4/22,5,1.129,87.29,-7.155757217,1.78,92.3,86.66,0.99,-2.05,27.5,0.01,3.23,3.24,91,27,504.3,16.3,-1.6,D,1253.5,2,19.928,1,1.29,156,90.3,-80.13754847,25.91274442,0,0,1,N,0.5268905,63,63,11,136,136,88.93744,0,9999.99,3.24,3.367,2,9,25.6,0,25.60000038,37.75,1538.72802,2/4/22,16:19:11,22.39,56.68,37.75,1.206,7.75,-43.7,-4.1,-1.8,-1948,84.5,5.9,12.6,
25.91274804,-80.13773937,44:04.4,2/4/22,5,1.46,85.06,-7.155757217,1.78,91.4,85.82,0.98,-2.91,27.5,0.01,3.22,3.23,91,27,504.3,16.3,-1.6,D,1253.5,2,19.097,1,1.3,156,91.21,-80.13754847,25.91274442,0,0,1,N,0.2052719,64,64,11,145,145,90.58424,0,9999.99,3.23,3.357,2,9,25.6,0,25.60000038,37.28,1538.22212,2/4/22,16:19:13,22.39,56.05,37.28,1.205,7.75,-43.8,-5.5,-1.5,-2064,83.9,5.87,12.4,
25.91274841,-80.13773274,44:05.4,2/4/22,5,1.214,87.59,-7.155757217,1.78,92.1,86.48,1.26,-1.95,27.5,0,3.21,3.21,91,26,504.3,16.3,-1.6,D,1286.5,2,18.436,1,1.27,156,91.38,-80.13754847,25.91274442,0,0,1,N,0.1400278,65,65,11,145,145,90.90504,0,9999.99,3.22,3.347,2,9,25.6,0,25.60000038,37.28,1538.22212,2/4/22,16:19:13,22.39,56.05,37.28,1.205,7.75,-43.8,-5.5,-1.5,-2064,83.9,5.87,12.4,
25.91274934,-80.13772468,44:06.4,2/4/22,5,1.25,89.7,-7.155757217,1.78,92.9,87.23,1.2,-5.26,27.5,0.01,3.21,3.22,91,26,504.2,16.3,-1.6,D,1288.9,2,17.632,1,1.24,156,91.78,-80.13754847,25.91274442,0,0,1,N,8.69E-03,64,64,11,145,145,91.72484,0,9999.99,3.22,3.347,2,9,25.5,0,25.5,38.38,1539.17273,2/4/22,16:19:14,22.41,57.53,38.38,1.164,7.75,-43.8,-4.4,-3,-4014,83.5,5.8,12.4,
25.91274973,-80.13771737,44:07.4,2/4/22,5,1.025,88.97,-7.155757217,1.78,94.3,88.54,1.02,-1.09,27.5,0.01,3.22,3.23,91,26,504.2,16.3,-1.6,D,1296,2,16.903,1,1.24,156,92,-80.13754847,25.91274442,0,0,1,N,6.01E-02,63,63,11,142,142,92.23065,0,9999.99,3.23,3.357,2,9,25.5,0,25.5,37.83,1538.58067,2/4/22,16:19:16,22.38,56.79,37.83,1.177,7.75,-43.8,-4.3,-2.5,-1859,82.9,5.78,12.5,
25.91274997,-80.13771006,44:08.4,2/4/22,5,1.385,88.56,-7.155757217,1.78,95.5,89.67,0.88,-3.36,27.5,0.01,3.2,3.21,91,26,504.2,16.3,-1.6,D,1296,2,16.174,1,1.23,155,92.19,-80.13754847,25.91274442,0,0,1,N,0.1113482,62,62,11,139,139,92.59742,0,9999.99,3.21,3.337,2,9,25.5,0,25.5,37.83,1538.58067,2/4/22,16:19:16,22.38,56.79,37.83,1.177,7.75,-43.8,-4.3,-2.5,-1859,82.9,5.78,12.5,
25.91274964,-80.13770402,44:09.4,2/4/22,5,1.209,89.58,-7.155757217,1.78,96.3,90.42,1.18,-2.54,27.5,0,3.19,3.19,91,26,504.2,16.3,-1.6,D,1296,2,15.569,1,1.19,155,92.14,-80.13754847,25.91274442,0,0,1,N,0.0933574,64,64,11,135,135,92.46861,0,9999.99,3.2,3.327,2,9,25.5,0,25.5,38.94,1539.7759,2/4/22,16:19:17,22.4,58.26,38.94,1.163,7.75,-43.8,-3.5,-1,-1973,82.6,5.72,12.4,
25.91275005,-80.13769765,44:10.4,2/4/22,5,0.966,89.58,-7.155757217,1.78,97.4,91.45,1.09,-3.94,27.6,0.01,3.19,3.2,91,26,504.2,16.3,-1.5,D,1314.6,2,14.934,1,1.2,155,92.4,-80.13754847,25.91274442,0,0,1,N,0.1615622,64,64,11,133,133,92.95702,0,9999.99,3.2,3.327,2,9,25.5,0,25.5,39.26,1540.12102,2/4/22,16:19:19,22.41,58.68,39.26,1.157,7.75,-43.8,-4.7,-2.3,-2922,82,5.67,12.5,
25.91275094,-80.13769039,44:11.5,2/4/22,5,1.081,96.21,-7.155757217,1.78,98.4,92.38,1.3,-4.1,27.6,0,3.2,3.2,91,26,504.2,16.3,-1.5,D,1314.6,2,14.213,1,1.19,155,92.92,-80.13754847,25.91274442,0,0,1,N,0.2859235,65,65,11,133,133,93.84688,0,9999.99,3.21,3.337,2,9,25.4,0,25.5,39.26,1540.12102,2/4/22,16:19:19,22.41,58.68,39.26,1.157,7.75,-43.8,-4.7,-2.3,-2922,82,5.67,12.5,
25.91275003,-80.13768421,44:12.5,2/4/22,5,1.208,96.81,-7.155757217,1.78,99,92.94,1.36,-6.41,27.6,0.01,3.17,3.18,91,26,504.2,16.3,-1.5,D,1314.6,2,13.591,1,1.19,155,92.63,-80.13754847,25.91274442,0,0,1,N,0.2051307,65,65,11,128,128,93.26883,0,9999.99,3.18,3.307,2,9,25.4,0,25.39999962,38.51,1539.07957,2/4/22,16:19:21,22.42,57.69,38.51,1.164,7.75,-43.8,-5.2,-0.5,-3961,81.4,5.65,12.4,
25.91274905,-80.13767851,44:13.5,2/4/22,5,1.254,100.56,-7.155757217,1.78,99.5,93.41,0.89,-4.79,27.7,0.01,3.18,3.18,91,26,504.2,16.3,-1.5,D,1314.6,2,13.016,1,1.16,155,92.26,-80.13754847,25.91274442,0,0,1,N,0.1126589,62,62,11,124,124,92.60686,0,9999.99,3.19,3.317,2,9,25.4,0,25.39999962,37.16,1537.62452,2/4/22,16:19:22,22.43,55.9,37.16,1.199,7.76,-44.5,-3.4,0.3,-3256,81.2,5.68,12.6,
25.91274891,-80.13767166,44:14.5,2/4/22,5,1.125,100.56,-7.155757217,1.78,100,93.87,1.05,-4.52,27.6,0.01,3.17,3.17,91,26,504.2,16.3,-1.5,D,1312.9,2,12.331,1,1.14,155,92.32,-80.13754847,25.91274442,0,0,1,N,0.1191464,63,63,11,122,122,92.65324,0,9999.99,3.18,3.307,2,9,25.4,0,25.39999962,37.16,1537.62452,2/4/22,16:19:22,22.43,55.9,37.16,1.199,7.76,-44.5,-3.4,0.3,-3256,81.2,5.68,12.6,
25.91274861,-80.13766578,44:15.5,2/4/22,5,0.904,100.56,-7.155757217,1.78,100.4,94.25,0.84,-5.5,27.6,0.01,3.16,3.17,91,26,504.2,16.3,-1.5,D,1312.9,2,11.742,1,1.14,155,92.27,-80.13754847,25.91274442,0,0,1,N,0.1058432,62,62,11,120,120,92.55801,0,9999.99,3.17,3.297,2,9,25.4,0,25.39999962,37.93,1538.4544,2/4/22,16:19:23,22.44,56.93,37.93,1.164,7.75,-43.8,-4.8,-1.3,-1093,81,5.64,12.5,
25.91274855,-80.13765987,44:16.5,2/4/22,5,1.027,101.84,-7.155757217,1.78,100.5,94.34,1.29,-6.01,27.6,0.01,3.14,3.15,91,26,504.2,16.3,-1.5,D,1312.9,2,11.152,1,1.17,155,92.36,-80.13754847,25.91274442,0,0,1,N,0.1192902,65,65,11,121,121,92.6543,0,9999.99,3.15,3.277,2,9,25.3,0,25.29999924,37.57,1537.83149,2/4/22,16:19:25,22.45,56.44,37.57,1.167,7.75,-43.9,-3.9,-2.1,-4505,80.4,5.61,12.3,
25.91274768,-80.13765415,44:17.5,2/4/22,5,1.382,97.53,-7.155757217,1.78,101.5,95.27,1.02,-4.04,27.7,0,3.11,3.11,91,26,504.2,16.3,-1.5,D,1317.8,2,10.576,1,1.15,154,91.97,-80.13754847,25.91274442,0,0,1,N,3.96E-02,64,64,11,114,114,92.08343,0,9999.99,3.12,3.247,2,9,25.3,0,25.29999924,37.57,1537.83149,2/4/22,16:19:25,22.45,56.44,37.57,1.167,7.75,-43.9,-3.9,-2.1,-4505,80.4,5.61,12.3,
25.91274711,-80.13764817,44:18.5,2/4/22,5,0.952,97.53,-7.155757217,1.78,101.9,95.64,0.6,-4.57,27.7,0,3.08,3.08,91,26,504.2,16.3,-1.5,D,1317.8,2,9.976,1,1.14,154,91.72,-80.13754847,25.91274442,0,0,1,N,2.10E-03,60,60,11,110,110,91.78495,0,9999.99,3.09,3.217,2,9,25.3,0,25.29999924,37.29,1537.5288,2/4/22,16:19:27,22.46,56.07,37.29,1.137,7.75,-43.9,-4.1,0.1,-2867,79.9,5.58,12.3,
25.91274706,-80.13764248,44:19.5,2/4/22,5,0.753,97.53,-7.155757217,1.78,101.8,95.55,0.58,-2.36,27.7,0.01,3.03,3.04,91,26,504.2,16.3,-1.5,D,1317.8,2,9.408,1,1.17,154,91.79,-80.13754847,25.91274442,0,0,1,N,9.74E-03,60,60,11,112,112,91.86973,0,9999.99,3.04,3.167,2,9,25.3,0,25.29999924,37.29,1537.5288,2/4/22,16:19:27,22.46,56.07,37.29,1.137,7.75,-43.9,-4.1,0.1,-2867,79.9,5.58,12.3,
25.91274652,-80.13763619,44:20.5,2/4/22,5,1.19,98.9,-7.155757217,1.78,101.6,95.36,1.16,-6.01,27.7,0.01,3.04,3.04,91,26,504.2,16.3,-1.5,D,1317.8,2,8.777,1,1.14,154,91.53,-80.13754847,25.91274442,0,0,1,N,0.0311117,64,64,11,112,112,91.57718,0,9999.99,3.04,3.167,2,9,25.3,0,25.29999924,38.7,1539.05031,2/4/22,16:19:28,22.5,57.94,38.7,1.14,7.75,-43.8,-4.1,-2.1,-1915,79.6,5.51,12.5,
25.91274534,-80.13763087,44:21.5,2/4/22,5,1.169,101.66,-7.155757217,1.78,101.9,95.64,0.69,-2.97,27.6,0.01,2.82,2.83,91,25,504.2,16.3,-1.5,D,1332.7,2,8.242,1,1.13,154,90.71,-80.13754847,25.91274442,0,0,1,N,0.1471308,61,61,11,107,107,90.74635,0,9999.99,2.83,2.957,2,9,25.3,0,25.29999924,38.1,1538.40294,2/4/22,16:19:30,22.51,57.15,38.1,1.169,7.75,-44,-4,-6.6,-3204,79.3,5.51,12.5,
25.91274377,-80.13762507,44:22.5,2/4/22,5,1.075,101.66,-7.155757217,1.77,101,94.81,0.56,-3.96,27.7,0.01,2.82,2.83,91,25,504.2,16.3,-1.5,D,1332.7,2,7.662,1,1.13,154,89.46,-80.13754847,25.91274442,0,0,1,N,0.3064278,60,60,11,106,106,89.60652,0,9999.99,2.83,2.957,2,9,25.2,0,25.29999924,38.1,1538.40294,2/4/22,16:19:30,22.51,57.15,38.1,1.169,7.75,-44,-4,-6.6,-3204,79.3,5.51,12.5,
25.91274255,-80.13761944,44:23.5,2/4/22,5,0.93,101.66,-7.155757217,1.77,100.4,94.25,1.16,-6.26,27.7,0.01,2.82,2.83,91,25,504.2,16.3,-1.5,D,1332.7,2,7.102,1,1.12,154,88.32,-80.13754847,25.91274442,0,0,1,N,0.4239074,64,64,11,105,105,88.76689,0,9999.99,2.83,2.957,2,9,25.2,0,25.20000076,38.13,1538.19982,2/4/22,16:19:31,22.52,57.2,38.13,1.103,7.75,-44,-3.7,-4.2,-1515,79.1,5.49,12.5,
25.91274095,-80.13761556,44:24.5,2/4/22,5,0.898,101.66,-7.155757217,1.77,100.5,94.34,0.84,-3.88,27.7,0,2.8,2.8,91,25,504.1,16.3,-1.5,D,1334.4,2,6.721,1,1.12,154,86.7,-80.13754847,25.91274442,0,0,1,N,0.5902516,62,62,11,100,100,87.58038,0,9999.99,2.81,2.937,2,9,25.2,0,25.20000076,39.27,1539.43043,2/4/22,16:19:33,22.54,58.7,39.27,1.123,7.75,-43.7,-4.7,-2.1,-2452,78.7,5.43,12.4,
25.91273953,-80.13761171,44:25.5,2/4/22,5,1.1,101.66,-7.155757217,1.77,99.8,93.69,0.83,0.17,27.7,0,2.79,2.8,91,25,504.1,16.3,-1.5,D,1334.4,3,23.317,1,1.12,154,129.9,-80.13743286,25.91260502,0,0,1,N,0.7318922,64,64,11,202,202,111.9223,0,9999.99,2.8,2.927,2,9,25.2,0,25.20000076,39.27,1539.43043,2/4/22,16:19:33,22.54,58.7,39.27,1.123,7.75,-43.7,-4.7,-2.1,-2452,78.7,5.43,12.4,
25.9127391,-80.13760685,44:26.5,2/4/22,5,1.194,95.43,-7.155757217,1.77,100.3,94.15,0.93,2.59,27.7,0,2.78,2.79,91,25,504.1,16.3,-1.5,D,1334.4,3,22.915,1,1.11,154,130.59,-80.13743286,25.91260502,0,0,1,N,5.083327,63,63,11,229,229,119.3778,0,9999.99,2.79,2.917,2,9,25.2,0,25.20000076,37.44,1537.45487,2/4/22,16:19:34,22.53,56.28,37.44,1.134,7.75,-43.9,-4.4,5.4,-2722,78.6,5.47,12.5,
25.91273947,-80.13760146,44:27.5,2/4/22,6,0.902,86.93,-7.155757217,1.32,103.2,96.85,0.97,-3.98,27.7,0.01,2.73,2.74,91,25,504.1,16.3,-1.5,D,1334.4,3,22.536,1,1.08,154,131.56,-80.13743286,25.91260502,0,0,1,N,4.616027,63,63,11,223,223,120.7836,0,9999.99,2.74,2.867,2,9,25.2,0,25.20000076,37.4,1537.41222,2/4/22,16:19:36,22.55,56.22,37.4,1.11,7.76,-44.7,-4.3,-4.5,-1275,78.1,5.44,12.5,
25.91273958,-80.13759615,44:28.5,2/4/22,6,0.947,89.85,-7.155757217,1.32,107,100.38,1.13,-0.55,27.7,0.01,2.74,2.75,91,25,504.1,16.3,-1.5,D,1327.6,3,22.149,1,1.06,154,132.49,-80.13743286,25.91260502,0,0,1,N,4.178639,64,64,11,214,214,122.1406,0,9999.99,2.75,2.877,2,9,25.2,0,25.20000076,37.4,1537.41222,2/4/22,16:19:36,22.55,56.22,37.4,1.11,7.76,-44.7,-4.3,-4.5,-1275,78.1,5.44,12.5,
25.91273862,-80.13759063,44:29.5,2/4/22,6,1.047,97,-7.155757217,1.32,111.2,104.27,1.72,-5.1,27.7,0.01,2.69,2.7,91,25,504.1,16.3,-1.5,D,1327.6,3,21.672,1,1.06,154,133.27,-80.13743286,25.91260502,0,0,1,N,3.802664,70,70,11,204,204,123.1137,0,9999.99,2.7,2.827,2,9,25.2,0,25.20000076,38.24,1538.3191,2/4/22,16:19:37,22.57,57.34,38.24,1.089,7.75,-43.9,-3.9,-1.7,-1935,77.9,5.4,12.4,
25.91273696,-80.13758611,44:30.5,2/4/22,6,0.998,105.31,-7.155757217,1.32,115.6,108.35,1.3,-3.06,27.8,0.01,2.68,2.69,91,25,504.1,16.3,-1.5,D,1327.6,3,21.217,1,1.04,154,133.75,-80.13743286,25.91260502,0,0,1,N,3.545825,65,65,11,188,188,123.5516,0,9999.99,2.69,2.817,2,9,25.2,0,25.20000076,37.88,1537.93044,2/4/22,16:19:39,22.57,56.86,37.88,1.137,7.75,-43.9,-3.4,2,-3281,77.6,5.39,12.5,
25.91273497,-80.13758181,44:31.5,2/4/22,6,1.003,108.76,-7.155757217,1.32,119.3,111.77,0.78,-3.22,27.8,0.01,2.65,2.66,91,26,504.1,16.3,-1.5,D,1315.9,3,20.754,1,1.04,154,134.13,-80.13743286,25.91260502,0,0,1,N,3.327019,62,62,11,175,175,123.766,0,9999.99,2.66,2.787,2,9,25.2,0,25.20000076,37.88,1537.93044,2/4/22,16:19:39,22.57,56.86,37.88,1.137,7.75,-43.9,-3.4,2,-3281,77.6,5.39,12.5,
25.91273324,-80.13757748,44:32.5,2/4/22,6,0.963,113.89,-7.155757217,1.32,122.8,115,1.34,-5.27,27.8,0.01,2.68,2.68,91,26,504.1,16.3,-1.5,D,1315.9,3,20.31,1,1.03,154,134.59,-80.13743286,25.91260502,0,0,1,N,3.092257,65,65,11,164,164,124.1579,0,9999.99,2.68,2.807,2,9,25.2,0,25.20000076,38.85,1538.97733,2/4/22,16:19:40,22.6,58.15,38.85,1.102,7.75,-44,-4.3,-2.1,-2765,77.4,5.35,12.5,
25.91273077,-80.13757393,44:33.5,2/4/22,6,1.046,115.79,-7.155757217,1.32,126.6,118.52,0.58,-4.49,27.8,0.01,2.66,2.66,91,26,504.1,16.3,-1.5,D,1315.9,3,19.864,1,1.02,154,134.74,-80.13743286,25.91260502,0,0,1,N,2.971562,60,60,11,149,149,123.8619,0,9999.99,2.67,2.797,2,9,25.2,0,25.20000076,39.1,1539.24706,2/4/22,16:19:42,22.61,58.48,39.1,1.162,7.75,-44,-5,-2.4,-3850,77.2,5.32,12.4,
25.91272851,-80.13756948,44:34.5,2/4/22,6,0.96,118.63,-7.155757217,1.32,129.2,120.93,0.84,-3.8,27.8,0.01,2.69,2.7,91,26,504.1,16.3,-1.5,D,1315.9,3,19.371,1,1.03,154,135.14,-80.13743286,25.91260502,0,0,1,N,2.768655,65,65,11,141,141,124.1665,0,9999.99,2.7,2.827,2,9,25.1,0,25.20000076,39.1,1539.24706,2/4/22,16:19:42,22.61,58.48,39.1,1.162,7.75,-44,-5,-2.4,-3850,77.2,5.32,12.4,
25.91272562,-80.13756561,44:35.5,2/4/22,6,0.893,125.12,-7.155757217,1.32,130.2,121.86,1.18,-5.01,27.8,0,2.68,2.69,91,26,504.1,16.3,-1.6,D,1290,3,18.871,1,1.05,154,135.28,-80.13743286,25.91260502,0,0,1,N,2.642185,64,64,11,140,140,125.0037,0,9999.99,2.69,2.817,2,9,25.1,0,25.10000038,37.41,1537.186,2/4/22,16:19:43,22.58,56.24,37.41,1.106,7.75,-44,-4.7,-3.4,-1695,77.1,5.37,12.4,
25.91272224,-80.13756072,44:36.5,2/4/22,6,1.065,128.62,-7.155757217,1.32,132.9,124.37,0.29,-3.79,27.8,0,2.68,2.68,91,26,504.1,16.3,-1.6,D,1290,3,18.26,1,1.04,154,135.55,-80.13743286,25.91260502,0,0,1,N,2.475273,59,59,11,135,135,126.0887,0,9999.99,2.69,2.817,2,9,25.1,0,25.10000038,37.3,1537.06735,2/4/22,16:19:45,22.59,56.08,37.3,1.173,7.75,-44.1,-5.3,-2,-2708,76.7,5.35,12.4,
25.91271991,-80.13755669,44:37.5,2/4/22,6,0.972,127.18,-7.155757217,1.32,133.1,124.56,1.23,-2.72,27.8,0,2.67,2.67,91,26,504.1,16.3,-1.6,D,1290,3,17.794,1,1.04,154,135.89,-80.13743286,25.91260502,0,0,1,N,2.307487,65,65,11,138,138,127.1886,0,9999.99,2.67,2.797,2,9,25.1,0,25.10000038,37.3,1537.06735,2/4/22,16:19:45,22.59,56.08,37.3,1.173,7.75,-44.1,-5.3,-2,-2708,76.7,5.35,12.4,
25.91271612,-80.13755237,44:38.5,2/4/22,6,1.134,131.85,-7.155757217,1.32,134.3,125.67,1.47,-3.06,27.8,0.01,2.65,2.66,91,26,504.1,16.3,-1.6,D,1290,3,17.19,1,1.05,154,135.95,-80.13743286,25.91260502,0,0,1,N,2.21006,66,66,11,137,137,127.8357,0,9999.99,2.66,2.787,2,9,25.1,0,25.10000038,38.06,1537.8882,2/4/22,16:19:46,22.59,57.1,38.06,1.097,7.75,-44,-4.2,-3.9,-3005,76.6,5.32,12.5,
25.912712,-80.13754804,44:39.5,2/4/22,6,1.064,133.95,-7.155757217,1.32,135.2,126.51,1.14,-3.31,27.8,0.01,2.64,2.64,91,25,504,16.3,-1.5,D,1331.7,3,16.559,1,1.06,154,135.92,-80.13743286,25.91260502,0,0,1,N,2.136614,64,64,11,134,134,128.3254,0,9999.99,2.65,2.777,2,9,25.1,0,25.10000038,37.76,1537.56416,2/4/22,16:19:48,22.6,56.7,37.76,1.105,7.75,-44,-3.8,-4.7,-5258,76.5,5.31,12.5,
25.91270797,-80.13754504,44:40.5,2/4/22,6,1.055,133.95,-7.155757217,1.32,136.1,127.35,1.22,-3.88,27.8,0.01,2.63,2.63,91,25,504,16.3,-1.5,D,1331.7,3,16.029,1,1.04,154,135.58,-80.13743286,25.91260502,0,0,1,N,2.165276,64,64,11,129,129,128.1343,0,9999.99,2.64,2.767,2,9,25.1,0,25.10000038,37.76,1537.56416,2/4/22,16:19:48,22.6,56.7,37.76,1.105,7.75,-44,-3.8,-4.7,-5258,76.5,5.31,12.5,
25.91270464,-80.13754081,44:41.5,2/4/22,6,1.032,133.95,-7.155757217,1.32,136.5,127.72,1.07,-2.04,27.8,0,2.6,2.6,91,25,504,16.3,-1.5,D,1331.7,3,15.468,1,1.03,154,135.73,-80.13743286,25.91260502,0,0,1,N,2.051372,63,63,11,132,132,128.897,0,9999.99,2.61,2.737,2,9,25.1,0,25.10000038,39.29,1539.21679,2/4/22,16:19:49,22.64,58.73,39.29,1.145,7.75,-44.1,-3.8,1.4,-6469,76.4,5.26,12.4,
25.9127017,-80.13753656,44:42.5,2/4/22,6,1.048,135.92,-7.155757217,1.32,137.4,128.56,1.31,-3.13,27.8,0.01,2.58,2.59,91,25,504,16.3,-1.5,D,1335.8,3,14.938,1,1.05,154,136.03,-80.13743286,25.91260502,0,0,1,N,1.900183,65,65,11,132,132,129.9174,0,9999.99,2.59,2.717,2,9,25.1,0,25.10000038,38.51,1538.37449,2/4/22,16:19:51,22.73,57.7,38.51,1.099,7.75,-44,-4.9,-7,-6341,76.3,5.26,12.6,
25.91269811,-80.13753306,44:43.5,2/4/22,6,1.015,136.6,-7.155757217,1.32,137.2,128.38,1.36,-3.18,27.8,0.01,2.58,2.59,91,25,504,16.3,-1.5,D,1335.8,3,14.408,1,1.07,154,135.92,-80.13743286,25.91260502,0,0,1,N,1.861117,65,65,11,134,134,130.1823,0,9999.99,2.59,2.717,2,9,25.1,0,25.10000038,38.51,1538.37449,2/4/22,16:19:51,22.73,57.7,38.51,1.099,7.75,-44,-4.9,-7,-6341,76.3,5.26,12.6,
25.91269415,-80.13752937,44:44.5,2/4/22,6,0.997,137.2,-7.155757217,1.32,137.8,128.94,1.26,-2.98,27.8,0.01,2.55,2.56,91,25,504,16.3,-1.5,D,1335.8,3,13.834,1,1.07,154,135.76,-80.13743286,25.91260502,0,0,1,N,1.826661,65,65,11,133,133,130.4166,0,9999.99,2.56,2.687,2,9,25.1,0,25.10000038,38.1,1537.93158,2/4/22,16:19:52,22.78,57.15,38.1,1.104,7.75,-43.9,-2.1,-0.7,-3352,76.1,5.26,12.5,
25.91269029,-80.13752576,44:45.5,2/4/22,6,1.127,140.11,-7.155757217,1.32,139,130.06,1.26,-3.2,27.8,0.01,2.56,2.57,91,25,504,16.3,-1.5,D,1335.8,3,13.275,1,1.07,154,135.58,-80.13743286,25.91260502,0,0,1,N,1.790838,65,65,11,129,129,130.6608,0,9999.99,2.57,2.697,2,9,25.1,0,25.10000038,37.6,1537.39156,2/4/22,16:19:53,22.8,56.49,37.6,1.112,7.75,-44.1,-4.4,-2.9,-2865,76.2,5.28,12.4,
25.91268606,-80.13752159,44:46.5,2/4/22,6,1.067,140.11,-7.155757217,1.32,138.9,129.97,1.26,-2.67,27.9,0,2.53,2.53,91,25,504,16.3,-1.5,D,1331.6,3,12.648,1,1.07,154,135.44,-80.13743286,25.91260502,0,0,1,N,1.738621,65,65,11,132,132,131.0175,0,9999.99,2.54,2.667,2,9,25.1,0,25.10000038,37.29,1537.05667,2/4/22,16:19:55,22.83,56.08,37.29,1.075,7.76,-44.6,-4.6,-0.2,-2405,76.2,5.29,12.5,
25.91268207,-80.13751769,44:47.6,2/4/22,6,1.026,140.11,-7.155757217,1.32,139.8,130.81,1.08,-2.24,27.9,0,2.55,2.55,91,25,504,16.3,-1.5,D,1331.6,3,12.058,1,1.07,154,135.28,-80.13743286,25.91260502,0,0,1,N,1.692778,63,63,11,129,129,131.3314,0,9999.99,2.56,2.687,2,9,25.1,0,25.10000038,37.29,1537.05667,2/4/22,16:19:55,22.83,56.08,37.29,1.075,7.76,-44.6,-4.6,-0.2,-2405,76.2,5.29,12.5,
25.91267866,-80.13751432,44:48.6,2/4/22,6,0.959,140.11,-7.155757217,1.32,139.6,130.62,1.34,-3.04,27.9,0,2.52,2.52,91,25,504,16.3,-1.5,D,1331.6,3,11.551,1,1.04,154,135.14,-80.13743286,25.91260502,0,0,1,N,1.648215,65,65,11,131,131,131.6374,0,9999.99,2.53,2.657,2,9,25.1,0,25.10000038,38.1,1537.93138,2/4/22,16:19:56,22.83,57.16,38.1,1.073,7.75,-44,-3.8,-2.1,-1965,76.4,5.28,12.5,
25.91267497,-80.1375101,44:49.6,2/4/22,6,1.078,140.11,-7.155757217,1.32,139.9,130.9,1.09,-3.27,27.9,0,2.45,2.45,91,25,504,16.3,-1.5,D,1328.1,3,10.963,1,1.06,154,135.2,-80.13743286,25.91260502,0,0,1,N,1.552454,64,64,11,133,133,132.2963,0,9999.99,2.46,2.587,2,9,25.1,0,25.10000038,37.6,1537.39133,2/4/22,16:19:58,22.8,56.49,37.6,1.142,7.75,-44.1,-3,-0.9,-1105,76.4,5.3,12.5,
25.91267112,-80.1375061,44:50.6,2/4/22,6,1.095,140.11,-7.155757217,1.32,140.6,131.56,1.27,-2.82,27.9,0,2.41,2.41,91,25,504,16.3,-1.5,D,1328.1,3,10.377,1,1.07,154,135.1,-80.13743286,25.91260502,0,0,1,N,1.49026,65,65,11,132,132,132.7266,0,9999.99,2.42,2.547,2,9,25.1,0,25.10000038,38.79,1538.67678,2/4/22,16:19:59,22.82,58.07,38.79,1.062,7.75,-44.1,-5.1,-2.4,-1516,76.5,5.26,12.5,
25.91266771,-80.13750241,44:51.6,2/4/22,6,1.078,140.11,-7.155757217,1.32,140.4,131.37,1.18,-2.25,28,0,2.37,2.37,91,25,504,16.3,-1.5,D,1325.6,3,9.848,1,1.07,154,135.06,-80.13743286,25.91260502,0,0,1,N,1.421885,64,64,11,134,134,133.2006,0,9999.99,2.38,2.507,2,9,25.1,0,25.10000038,38.79,1538.67678,2/4/22,16:19:59,22.82,58.07,38.79,1.062,7.75,-44.1,-5.1,-2.4,-1516,76.5,5.26,12.5,
25.91266387,-80.13749964,44:52.6,2/4/22,6,0.983,140.11,-7.155757217,1.32,140.7,131.65,0.67,-1.85,27.9,0,2.37,2.37,91,25,504,16.3,-1.5,D,1325.6,3,9.35,1,1.06,154,134.41,-80.13743286,25.91260502,0,0,1,N,1.453283,61,61,11,134,134,132.9822,0,9999.99,2.38,2.507,2,9,25.1,0,25.10000038,37.06,1536.80816,2/4/22,16:20:00,22.78,55.77,37.06,1.101,7.75,-44.1,-4.4,-5.6,-2543,76.5,5.32,12.5,
25.91266003,-80.13749635,44:53.6,2/4/22,6,1.044,140.11,-7.155757217,1.32,141.6,132.5,1.23,-2.29,28,0.01,2.34,2.35,91,25,504,16.3,-1.5,D,1325.6,3,8.817,1,1.05,154,133.93,-80.13743286,25.91260502,0,0,1,N,1.443791,64,64,11,129,129,133.0483,0,9999.99,2.35,2.477,2,9,25,0,25,38.19,1537.79229,2/4/22,16:20:02,22.77,57.28,38.19,1.107,7.75,-44.1,-2.9,0.7,-1077,76.5,5.28,12.4,
25.91265481,-80.13749322,44:54.7,2/4/22,6,1.064,140.11,-7.155757217,1.31,141.6,132.5,1.23,-4.08,28,0.01,2.33,2.34,91,25,504,16.3,-1.5,D,1328.9,3,8.191,1,1.08,154,132.53,-80.13743286,25.91260502,0,0,1,N,1.539155,62,62,11,127,127,132.3882,0,9999.99,2.34,2.467,2,9,25,0,25,38.19,1537.79229,2/4/22,16:20:02,22.77,57.28,38.19,1.107,7.75,-44.1,-2.9,0.7,-1077,76.5,5.28,12.4,
25.91264905,-80.13749,44:55.7,2/4/22,6,1.167,140.11,-7.155757217,1.31,142.4,133.25,1.12,-2.1,28,0.01,2.31,2.32,91,25,504,16.3,-1.5,D,1328.9,3,7.526,1,1.05,154,130.59,-80.13743286,25.91260502,0,0,1,N,1.663935,64,64,11,120,120,131.5287,0,9999.99,2.32,2.447,2,9,25,0,25,37.65,1537.20882,2/4/22,16:20:03,22.74,56.55,37.65,1.096,7.75,-44.1,-3.5,-1.4,-3751,76.4,5.3,12.5,
25.91264417,-80.13748582,44:56.7,2/4/22,6,1.345,140.11,-7.155757217,1.31,141.9,132.78,1,-3.92,28,0.01,2.35,2.36,91,25,504,16.3,-1.5,D,1328.9,3,6.856,1,1.05,154,129.41,-80.13743286,25.91260502,0,0,1,N,1.653321,63,63,11,122,122,131.6024,0,9999.99,2.36,2.487,2,9,25,0,25,37.29,1536.81952,2/4/22,16:20:05,22.71,56.07,37.29,1.128,7.75,-44.1,-2.9,0.3,-4199,76.4,5.32,12.4,
25.91263989,-80.13748275,44:57.7,2/4/22,6,1.178,140.11,-7.155757217,1.7,142.4,133.25,0.94,-1.59,28,0.01,2.31,2.32,91,25,504,16.3,-1.5,D,1328.9,3,6.32,1,1.04,154,127.85,-80.13743286,25.91260502,0,0,1,N,1.692268,63,63,11,119,119,131.3349,0,9999.99,2.32,2.447,2,9,25,0,25,38.71,1538.35438,2/4/22,16:20:06,22.73,57.96,38.71,1.069,7.75,-44.1,-2.5,2,-2401,76.4,5.27,12.5,
25.91263578,-80.1374784,44:58.7,2/4/22,6,0.924,140.11,-7.155757217,1.7,141.3,132.22,1.14,-2.49,28.1,0.01,2.32,2.33,91,25,503.9,16.3,-1.5,D,1327.1,3,5.697,1,1.06,154,126.9,-80.13743286,25.91260502,0,0,1,N,1.620548,64,64,11,125,125,131.8274,0,9999.99,2.33,2.457,2,9,25,0,25,38.71,1538.35438,2/4/22,16:20:06,22.73,57.96,38.71,1.069,7.75,-44.1,-2.5,2,-2401,76.4,5.27,12.5,
25.91263188,-80.13747408,44:59.7,2/4/22,6,1.06,140.11,-7.155757217,1.7,142.1,132.97,1.46,-3.26,27.9,0.01,2.29,2.29,91,25,503.9,16.3,-1.5,D,1327.1,4,19.194,1,1.05,154,198.42,-80.13753471,25.9124681,0,0,1,N,5.145958,66,66,11,250,250,181.7679,0,9999.99,2.3,2.427,2,9,25,0,25,37.32,1536.85189,2/4/22,16:20:07,22.72,56.12,37.32,1.114,7.75,-44.1,-2.1,0.1,-2961,76.5,5.32,12.5,
25.91262772,-80.13747173,45:00.7,2/4/22,6,1.048,140.11,-7.155757217,1.31,145.1,135.79,1.34,-1.69,28,0.01,2.27,2.28,91,25,503.9,16.3,-1.5,D,1327.1,4,18.833,1,1.03,154,199.54,-80.13753471,25.9124681,0,0,1,N,4.691757,64,64,11,250,250,183.438,0,9999.99,2.28,2.407,2,9,25,0,25,37.96,1537.54342,2/4/22,16:20:08,22.72,56.97,37.96,1.098,7.75,-44.1,-2.8,-2.5,-1791,76.4,5.29,12.5,
25.91262384,-80.13746907,45:01.7,2/4/22,6,1.037,140.11,-7.155757217,1.31,149.2,139.67,1.23,-2.8,28,0.01,2.29,2.3,91,25,503.9,16.3,-1.5,D,1344,4,18.52,1,0.99,154,200.76,-80.13753471,25.9124681,0,0,1,N,4.234688,64,64,11,250,250,185.8926,0,9999.99,2.3,2.427,2,9,25,0,25,37.73,1537.29506,2/4/22,16:20:10,22.71,56.66,37.73,1.062,7.75,-44.2,-2.7,-2.3,-2508,76.2,5.29,12.6,
25.91262065,-80.13746583,45:02.7,2/4/22,6,0.889,140.11,-7.155757217,1.31,154.4,144.62,1.47,-3.27,28,0.02,2.29,2.31,91,25,503.9,16.3,-1.5,D,1344,4,18.309,1,0.97,154,202.1,-80.13753471,25.9124681,0,0,1,N,3.765016,66,66,11,250,250,188.5884,0,9999.99,2.3,2.427,2,9,25,0,25,37.73,1537.29506,2/4/22,16:20:10,22.71,56.66,37.73,1.062,7.75,-44.2,-2.7,-2.3,-2508,76.2,5.29,12.6,
25.91261653,-80.13746417,45:03.7,2/4/22,6,0.923,140.11,-7.155757217,1.31,158.9,148.94,1.97,-3.34,28,0.01,2.33,2.34,91,25,503.9,16.3,-1.5,D,1344,4,17.949,1,0.97,154,203.15,-80.13753471,25.9124681,0,0,1,N,3.362886,69,69,11,250,250,190.9947,0,9999.99,2.35,2.477,2,9,25,0,25,39.14,1538.8201,2/4/22,16:20:11,22.74,58.54,39.14,1.061,7.75,-44,-3.3,-3.2,-4131,76,5.22,12.5,
25.91261262,-80.13746393,45:04.7,2/4/22,6,0.904,140.11,-7.155757217,1.31,165,154.85,1.55,-4.11,28,0.01,2.35,2.36,91,25,503.9,16.3,-1.5,D,1344,4,17.56,1,0.97,154,203.77,-80.13753471,25.9124681,0,0,1,N,3.105347,65,65,11,250,250,192.5759,0,9999.99,2.36,2.487,2,9,25,0,25,38.59,1538.22444,2/4/22,16:20:13,22.74,57.8,38.59,1.051,7.75,-44.2,-3.1,-1.2,-1923,76,5.24,12.4,
25.91260848,-80.13746282,45:05.7,2/4/22,6,0.921,140.11,-7.155757217,1.31,169.9,159.64,1.55,-2.52,28,0.01,2.36,2.37,91,25,503.9,16.3,-1.5,D,1335.5,4,17.186,1,0.92,154,204.73,-80.13753471,25.9124681,0,0,1,N,2.751697,66,66,11,250,250,194.8052,0,9999.99,2.37,2.497,2,9,25,0,25,38.59,1538.22444,2/4/22,16:20:13,22.74,57.8,38.59,1.051,7.75,-44.2,-3.1,-1.2,-1923,76,5.24,12.4,
25.91260494,-80.13746142,45:06.7,2/4/22,6,0.791,140.11,-7.155757217,1.31,174.7,164.38,1.7,-3.33,28,0.01,2.4,2.42,91,25,503.9,16.3,-1.5,D,1335.5,4,16.89,1,0.9,154,205.72,-80.13753471,25.9124681,0,0,1,N,2.407601,67,67,11,250,250,197.0367,0,9999.99,2.42,2.547,2,9,25,0,25,37.04,1536.54972,2/4/22,16:20:14,22.72,55.75,37.04,1.068,7.76,-44.5,-3.7,-2.9,-2799,76,5.29,12.6,
25.91260058,-80.13746066,45:07.8,2/4/22,6,0.948,140.11,-7.155757217,1.31,180.1,169.77,1.81,-3.37,28,0.01,2.44,2.45,91,25,503.9,16.3,-1.5,D,1335.5,4,16.488,1,0.9,154,206.69,-80.13753471,25.9124681,0,0,1,N,2.070985,69,69,11,247,247,199.2722,0,9999.99,2.46,2.587,2,9,25,0,25,38.21,1537.81436,2/4/22,16:20:16,22.72,57.31,38.21,1.057,7.75,-43.9,-3.5,-3.8,-3933,76,5.25,12.5,
25.9125956,-80.13746074,45:08.8,2/4/22,6,0.952,140.11,-7.155757217,1.31,184.9,174.59,1.67,-2.5,28,0.01,2.53,2.53,91,25,503.9,16.3,-1.5,D,1335.5,4,15.992,1,0.9,154,207.56,-80.13753471,25.9124681,0,0,1,N,1.772724,67,67,11,234,234,201.292,0,9999.99,2.54,2.667,2,9,25,0,25,38.21,1537.81436,2/4/22,16:20:16,22.72,57.31,38.21,1.057,7.75,-43.9,-3.5,-3.8,-3933,76,5.25,12.5,
25.91259235,-80.1374596,45:09.8,2/4/22,5,0.914,140.11,-7.155757217,1.47,190,179.77,1.32,-3.88,28,0.01,2.59,2.59,91,25,503.9,16.3,-1.5,D,1327.8,4,15.726,1,0.9,154,208.53,-80.13753471,25.9124681,0,0,1,N,1.472977,65,65,11,221,221,203.3529,0,9999.99,2.6,2.727,2,9,25,0,25,37.73,1537.29483,2/4/22,16:20:17,22.7,56.66,37.73,1.109,7.75,-44.1,-2.7,-0.4,-3442,76,5.27,12.4,
25.91258836,-80.13745943,45:10.8,2/4/22,6,0.924,140.11,-7.155757217,1.47,193.5,183.34,1.48,-1.41,28,0,2.64,2.64,91,25,503.9,16.3,-1.5,D,1327.8,4,15.347,1,0.88,154,209.38,-80.13753471,25.9124681,0,0,1,N,1.204225,66,66,11,215,215,205.2255,0,9999.99,2.65,2.777,2,9,25,0,25,39.2,1538.88415,2/4/22,16:20:18,22.72,58.61,39.2,1.082,7.76,-44.2,-2.5,-4.5,-3619,75.9,5.22,12.5,
25.91258316,-80.1374579,45:11.8,2/4/22,6,0.815,140.11,-7.155757217,1.47,199,189,1.05,-2.97,27.9,0,2.64,2.64,91,25,503.9,16.3,-1.5,D,1327.8,4,14.923,1,0.86,154,210.98,-80.13753471,25.9124681,0,0,1,N,0.7550253,63,63,11,208,208,208.3944,0,9999.99,2.65,2.777,2,9,24.9,0,25,38.8,1538.45149,2/4/22,16:20:20,22.73,58.09,38.8,1.091,7.76,-44.2,-2.9,1.5,-1823,75.9,5.23,12.5,
25.91257903,-80.13745929,45:12.8,2/4/22,6,0.866,140.11,-7.155757217,1.31,203.6,193.76,1.76,-2.9,27.9,0,2.85,2.86,91,26,503.8,16.3,-1.6,D,1310.3,4,14.459,1,0.91,154,211.45,-80.13753471,25.9124681,0,0,1,N,0.6129201,68,68,11,190,190,209.4046,0,9999.99,2.87,2.997,2,9,25,0,25,38.8,1538.45149,2/4/22,16:20:20,22.73,58.09,38.8,1.091,7.76,-44.2,-2.9,1.5,-1823,75.9,5.23,12.5,
25.91257534,-80.13746068,45:13.8,2/4/22,6,0.987,140.11,-7.155757217,1.31,207.3,197.6,1.27,-3.92,28,0.01,2.85,2.87,91,26,503.8,16.3,-1.6,D,1310.3,4,14.037,1,0.91,154,211.84,-80.13753471,25.9124681,0,0,1,N,0.4940312,65,65,11,183,183,210.252,0,9999.99,2.87,2.997,2,9,24.9,0,25,36.97,1536.47342,2/4/22,16:20:21,22.71,55.65,36.97,1.085,7.76,-44.2,-3,-1.5,148,76,5.29,12.5,
25.91257235,-80.13746042,45:14.8,2/4/22,6,0.929,140.11,-7.155757217,1.31,211.5,201.99,1.33,-4.13,28,0.01,2.7,2.7,91,26,503.8,16.3,-1.6,D,1310.3,4,13.769,1,0.89,154,212.66,-80.13753471,25.9124681,0,0,1,N,0.2813731,65,65,11,166,166,211.7713,0,9999.99,2.71,2.837,2,9,24.9,0,24.89999962,37.57,1536.88457,2/4/22,16:20:23,22.71,56.46,37.57,1.104,7.76,-44.3,-3.8,0.8,-4244,75.9,5.27,12.5,
25.91256752,-80.13746313,45:15.8,2/4/22,6,1.121,140.11,-7.155757217,1.31,212.4,202.93,1.11,-2.92,28,0.01,2.7,2.7,91,26,503.8,16.3,-1.6,D,1310.3,4,13.171,1,0.92,154,212.93,-80.13753471,25.9124681,0,0,1,N,0.2098501,64,64,11,164,164,212.2831,0,9999.99,2.71,2.837,2,9,24.9,0,24.89999962,37.57,1536.88457,2/4/22,16:20:23,22.71,56.46,37.57,1.104,7.76,-44.3,-3.8,0.8,-4244,75.9,5.27,12.5,
25.91256339,-80.1374642,45:16.9,2/4/22,7,0.916,140.11,-7.155757217,1.16,214.6,205.23,1.1,-2.49,28,0,2.91,2.91,91,26,503.8,16.3,-1.5,D,1316.9,4,12.728,1,0.93,154,213.65,-80.13753471,25.9124681,0,0,1,N,4.17E-02,64,64,11,160,160,213.4869,0,9999.99,2.92,3.047,2,9,24.9,0,24.89999962,37.84,1537.17629,2/4/22,16:20:24,22.68,56.81,37.84,1.099,7.75,-44.1,-3.5,-6,-2402,76,5.27,12.4,
25.9125604,-80.13746763,45:17.9,2/4/22,7,0.84,140.11,-7.155757217,1.16,215.4,206.07,1.15,-0.86,28,0,3.04,3.04,91,26,503.8,16.3,-1.5,D,1316.9,4,12.261,1,0.96,154,213.17,-80.13753471,25.9124681,0,0,1,N,0.140584,65,65,11,155,155,212.7789,0,9999.99,3.05,3.177,2,9,24.9,0,24.89999962,37.58,1536.89463,2/4/22,16:20:26,22.66,56.46,37.58,1.081,7.75,-44.1,-3.1,-4.6,-4756,75.8,5.27,12.5,
25.9125567,-80.1374708,45:18.9,2/4/22,7,0.912,140.11,-7.155757217,1.16,217.5,208.28,1.34,-2.35,28.1,0.01,3.12,3.12,91,26,503.8,16.3,-1.5,D,1316.9,4,11.744,1,0.97,154,212.98,-80.13753471,25.9124681,0,0,1,N,0.1741321,65,65,11,144,144,212.5388,0,9999.99,3.13,3.257,2,9,24.9,0,24.89999962,37.58,1536.89463,2/4/22,16:20:26,22.66,56.46,37.58,1.081,7.75,-44.1,-3.1,-4.6,-4756,75.8,5.27,12.5,
25.91255316,-80.1374732,45:19.9,2/4/22,7,0.948,140.11,-7.155757217,1.16,219.5,210.38,1.04,-2.18,28,0.01,3.12,3.13,91,26,503.8,16.3,-1.5,D,1315.9,4,11.283,1,0.99,154,213.04,-80.13753471,25.9124681,0,0,1,N,0.1524267,63,63,11,137,137,212.6941,0,9999.99,3.13,3.257,2,9,24.9,0,24.89999962,39.08,1538.51776,2/4/22,16:20:27,22.69,58.45,39.08,1.086,7.76,-44.2,-2.7,-1.3,-3808,75.8,5.21,12.4,
25.9125497,-80.13747545,45:20.9,2/4/22,7,1.075,187.42,-7.155757217,1.16,220.3,211.22,1.08,-3.09,28,0.01,3.15,3.16,91,26,503.8,16.3,-1.5,D,1315.9,4,10.838,1,1.01,154,213.15,-80.13753471,25.9124681,0,0,1,N,0.1237665,63,63,11,134,134,212.8994,0,9999.99,3.16,3.287,2,9,24.9,0,24.89999962,38.76,1538.17135,2/4/22,16:20:29,22.68,58.03,38.76,1.06,7.75,-44.1,-3.5,-1.8,-2265,75.7,5.22,12.4,
25.91254532,-80.13747901,45:21.9,2/4/22,7,1.045,200.08,-7.155757217,1.16,221.2,212.16,0.72,-5.16,28.1,0,3.2,3.21,91,26,503.8,16.3,-1.5,D,1315.9,4,10.235,1,1.02,154,212.97,-80.13753471,25.9124681,0,0,1,N,0.1494994,61,61,11,129,129,212.7151,0,9999.99,3.21,3.337,2,9,24.9,0,24.89999962,38.76,1538.17135,2/4/22,16:20:29,22.68,58.03,38.76,1.06,7.75,-44.1,-3.5,-1.8,-2265,75.7,5.22,12.4,
25.91254115,-80.13748215,45:22.9,2/4/22,7,1.049,202.47,-7.155757217,1.16,220.2,211.11,1.49,-0.5,28.1,0.01,3.23,3.23,91,26,503.8,16.3,-1.5,D,1315.9,4,9.675,1,1.03,154,212.91,-80.13753471,25.9124681,0,0,1,N,0.1531319,66,66,11,133,133,212.6891,0,9999.99,3.24,3.367,2,9,24.9,0,24.89999962,38.27,1537.64128,2/4/22,16:20:31,22.66,57.38,38.27,1.101,7.76,-44.2,-4.2,-4.5,-2227,75.8,5.24,12.5,
25.912537,-80.13748542,45:23.9,2/4/22,7,1.058,208.8,-7.155757217,1.16,220.5,211.43,1.07,-0.9,28.1,0,3.25,3.26,91,76,503.8,16.3,4.6,C,-1,4,9.11,1,1.04,154,212.76,-80.13753471,25.9124681,0,0,1,N,0.1706382,63,63,11,133,133,212.5638,0,9999.99,3.26,3.387,2,9,24.9,0,24.89999962,37.32,1536.61371,2/4/22,16:20:32,22.65,56.12,37.32,1.068,7.77,-44.8,-3.3,-5.4,-1453,75.7,5.27,12.7,
25.91253376,-80.13748844,45:24.9,2/4/22,7,0.961,217.06,-7.155757217,1.16,220.7,211.64,0.87,-1.1,28.2,0,3.25,3.25,91,76,503.8,16.3,4.6,C,-1,4,8.644,1,1.06,154,212.37,-80.13753471,25.9124681,0,0,1,N,0.2203303,62,62,11,129,129,212.2081,0,9999.99,3.26,3.387,2,9,24.9,0,24.89999962,37.32,1536.61371,2/4/22,16:20:32,22.65,56.12,37.32,1.068,7.77,-44.8,-3.3,-5.4,-1453,75.7,5.27,12.7,
25.91252954,-80.13749132,45:25.9,2/4/22,7,1.069,212.12,-7.155757217,1.16,219.3,210.17,0.97,-0.15,28.1,0,3.26,3.26,91,76,503.8,16.3,4.6,C,-1,4,8.094,1,1.06,154,212.43,-80.13753471,25.9124681,0,0,1,N,0.1999867,63,63,11,136,136,212.3537,0,9999.99,3.27,3.397,2,9,24.9,0,24.89999962,37.91,1537.2515,2/4/22,16:20:34,22.65,56.9,37.91,1.079,7.76,-44.2,-4,-1.1,-5044,75.6,5.24,12.6,
25.91252565,-80.13749514,45:26.9,2/4/22,7,1.027,215.72,-7.155757217,1.16,220.1,211.01,0.72,-4.24,28.1,0.01,3.31,3.32,91,25,503.8,16.3,-1.5,D,1326.7,4,7.525,1,1.05,154,211.74,-80.13753471,25.9124681,0,0,1,N,0.2772849,62,62,11,132,132,211.8004,0,9999.99,3.32,3.447,2,9,24.9,0,24.89999962,37.91,1537.2515,2/4/22,16:20:34,22.65,56.9,37.91,1.079,7.76,-44.2,-4,-1.1,-5044,75.6,5.24,12.6,
25.91252135,-80.13749897,45:27.9,2/4/22,7,1.104,212.17,-7.155757217,1.16,217.9,208.7,1.1,-0.6,28.1,0.01,3.31,3.32,91,25,503.8,16.3,-1.5,D,1326.7,4,6.916,1,1.05,154,211.12,-80.13753471,25.9124681,0,0,1,N,0.3314393,64,64,11,138,138,211.4133,0,9999.99,3.32,3.447,2,9,24.9,0,24.89999962,37.73,1537.05738,2/4/22,16:20:35,22.63,56.66,37.73,1.107,7.76,-44.2,-4.4,0.6,-1644,75.4,5.24,12.6,
25.91251647,-80.13750274,45:28.9,2/4/22,7,1.251,209.56,-7.155757217,1.16,216,206.7,0.93,0.6,28.1,0.01,3.36,3.37,91,25,503.8,16.3,-1.5,D,1326.7,4,6.257,1,1.06,154,210.73,-80.13753471,25.9124681,0,0,1,N,0.3441918,63,63,11,145,145,211.3222,0,9999.99,3.37,3.497,2,9,24.9,0,24.89999962,37.52,1536.83058,2/4/22,16:20:37,22.62,56.38,37.52,1.063,7.76,-44.2,-3.2,-1.6,-3900,75.4,5.24,12.4,
25.91251136,-80.13750887,45:29.9,2/4/22,7,1.102,214.33,-7.155757217,1.16,218.3,209.12,0.9,-1.75,28.1,0,3.36,3.37,91,25,503.8,16.3,-1.5,D,1326.7,5,21.153,1,1.06,154,215.29,-80.13763105,25.91235608,0,0,1,N,0.9144839,62,62,11,147,147,213.8202,0,9999.99,3.37,3.497,2,9,24.8,0,24.89999962,39.26,1538.71246,2/4/22,16:20:38,22.65,58.69,39.26,1.047,7.74,-43.3,-4.5,-6,-2862,75.3,5.18,12.5,
25.91250719,-80.1375128,45:30.9,2/4/22,7,1.081,213.73,-7.155757217,1.16,216.1,206.81,1.21,0.81,28.1,0.01,3.38,3.39,91,25,503.7,16.3,-1.5,D,1326.6,5,20.547,1,1.09,154,215.14,-80.13763105,25.91235608,0,0,1,N,0.9404171,64,64,11,152,152,213.5218,0,9999.99,3.39,3.517,2,9,24.8,0,24.89999962,39.26,1538.71246,2/4/22,16:20:38,22.65,58.69,39.26,1.047,7.74,-43.3,-4.5,-6,-2862,75.3,5.18,12.5,
25.91250417,-80.137519,45:31.9,2/4/22,7,1.044,216.66,-7.155757217,1.16,218.2,209.01,1.08,-1.02,28.1,0.01,3.42,3.43,91,25,503.7,16.3,-1.5,D,1326.6,5,19.915,1,1.08,154,214.91,-80.13763105,25.91235608,0,0,1,N,0.9905667,63,63,11,143,143,213.0662,0,9999.99,3.43,3.557,2,9,24.8,0,24.79999924,37.31,1536.36424,2/4/22,16:20:39,22.62,56.1,37.31,1.097,7.76,-44.3,-3,-0.2,-2877,75.4,5.25,12.4,
25.9125005,-80.13752317,45:32.9,2/4/22,7,1.054,216.71,-7.155757217,1.16,216.8,207.54,0.83,-0.97,28.1,0.01,3.42,3.43,91,25,503.7,16.3,-1.5,D,1326.6,5,19.369,1,1.08,154,214.48,-80.13763105,25.91235608,0,0,1,N,1.113232,62,62,11,145,145,212.2507,0,9999.99,3.43,3.557,2,9,24.8,0,24.79999924,38.94,1538.12926,2/4/22,16:20:40,22.64,58.27,38.94,1.071,7.76,-44.3,-3.6,-2.8,-4274,75.2,5.19,12.5,
25.91249633,-80.13752683,45:34.0,2/4/22,7,1.118,210.3,-7.155757217,1.16,216.3,207.02,1.24,0.97,28.2,0.01,3.4,3.41,91,26,503.7,16.3,-1.5,D,1314,5,18.799,1,1.07,154,214.16,-80.13763105,25.91235608,0,0,1,N,1.185288,65,65,11,146,146,211.5995,0,9999.99,3.41,3.537,2,9,24.8,0,24.79999924,38.6,1537.76117,2/4/22,16:20:42,22.61,57.81,38.6,1.083,7.74,-43.4,-4,1.4,-3834,75.3,5.2,12.5,
25.91249101,-80.13753111,45:35.0,2/4/22,7,1.127,210.24,-7.155757217,1.16,218.8,209.64,0.89,-3.61,28.1,0.01,3.42,3.43,91,26,503.7,16.3,-1.5,D,1314,5,18.029,1,1.07,154,213.67,-80.13763105,25.91235608,0,0,1,N,1.176995,62,62,11,131,131,210.6012,0,9999.99,3.43,3.557,2,9,24.8,0,24.79999924,38.6,1537.76117,2/4/22,16:20:42,22.61,57.81,38.6,1.083,7.74,-43.4,-4,1.4,-3834,75.3,5.2,12.5,
25.91248634,-80.13753476,45:36.0,2/4/22,7,1.238,206.24,-7.155757217,1.16,218.3,209.12,0.93,-0.61,28.1,0.01,3.46,3.47,91,26,503.7,16.3,-1.5,D,1314,5,17.393,1,1.09,154,213.62,-80.13763105,25.91235608,0,0,1,N,1.168508,63,63,11,134,134,210.3059,0,9999.99,3.47,3.597,2,9,24.8,0,24.79999924,37.1,1536.13721,2/4/22,16:20:43,22.58,55.83,37.1,1.06,7.76,-44.3,-3.6,-0.7,-5273,75.2,5.25,12.5,
25.9124825,-80.13753883,45:37.0,2/4/22,7,1.128,211.07,-7.155757217,1.16,218.6,209.43,0.97,-2.16,28.2,0.01,3.45,3.46,91,26,503.7,16.3,-1.5,D,1314,5,16.863,1,1.09,154,213.87,-80.13763105,25.91235608,0,0,1,N,1.148242,63,63,11,133,133,210.5545,0,9999.99,3.46,3.587,2,9,24.8,0,24.79999924,37.07,1536.10484,2/4/22,16:20:45,22.57,55.78,37.07,1.069,7.76,-44.2,-4.8,0,-2901,75.2,5.25,12.5,
25.91247833,-80.13754233,45:38.0,2/4/22,7,1.143,210.06,-7.155757217,1.16,218.6,209.43,1.23,-0.83,28.2,0,3.46,3.46,91,25,503.7,16.3,-1.5,D,1333.2,5,16.253,1,1.1,154,213.53,-80.13763105,25.91235608,0,0,1,N,1.204073,64,64,11,128,128,209.6826,0,9999.99,3.47,3.597,2,9,24.8,0,24.79999924,37.07,1536.10484,2/4/22,16:20:45,22.57,55.78,37.07,1.069,7.76,-44.2,-4.8,0,-2901,75.2,5.25,12.5,
25.91247351,-80.13754591,45:39.0,2/4/22,7,1.124,208.39,-7.155757217,1.16,217.6,208.38,1.2,-2.82,28.2,0.01,3.48,3.49,91,25,503.7,16.3,-1.5,D,1333.2,5,15.589,1,1.07,154,213.11,-80.13763105,25.91235608,0,0,1,N,1.185135,64,64,11,129,129,208.8797,0,9999.99,3.49,3.617,2,9,24.8,0,24.79999924,37.09,1536.12605,2/4/22,16:20:47,22.56,55.81,37.09,1.076,7.76,-44.2,-3.6,-0.8,1316,75.3,5.26,12.5,
25.91246959,-80.13754946,45:40.0,2/4/22,7,1.049,210,-7.155757217,1.16,216.8,207.54,1.17,1.35,28.2,0.01,3.5,3.51,91,25,503.7,16.3,-1.5,D,1333.2,5,15.03,1,1.09,154,212.88,-80.13763105,25.91235608,0,0,1,N,1.144265,64,64,11,130,130,208.6984,0,9999.99,3.51,3.637,2,9,24.8,0,24.79999924,37.09,1536.12605,2/4/22,16:20:47,22.56,55.81,37.09,1.076,7.76,-44.2,-3.6,-0.8,1316,75.3,5.26,12.5,
25.91246542,-80.1375538,45:41.0,2/4/22,7,1.107,215.17,-7.155757217,1.16,217.6,208.38,0.95,-0.53,28.2,0.01,3.47,3.48,91,26,503.7,16.3,-1.6,D,1287.3,5,14.406,1,1.1,154,212.43,-80.13763105,25.91235608,0,0,1,N,1.157789,63,63,11,126,126,208.255,0,9999.99,3.48,3.607,2,9,24.8,0,24.79999924,38.09,1537.2088,2/4/22,16:20:48,22.55,57.14,38.09,1.097,7.76,-44.2,-3.7,-3.9,-5078,75.3,5.23,12.5,
25.91246142,-80.13755796,45:42.0,2/4/22,7,1.043,215.27,-7.155757217,1.16,217.3,208.07,1.34,-0.2,28.2,0.01,3.49,3.5,91,26,503.7,16.3,-1.6,D,1287.3,5,13.807,1,1.1,154,211.97,-80.13763105,25.91235608,0,0,1,N,1.214221,65,65,11,126,126,207.8311,0,9999.99,3.5,3.627,2,9,24.8,0,24.79999924,37.42,1536.48362,2/4/22,16:20:49,22.55,56.24,37.42,1.058,7.76,-44.2,-4.4,1.7,-3114,75.1,5.23,12.4,
25.91245748,-80.13756158,45:43.0,2/4/22,7,1.104,211.61,-7.155757217,1.16,216.8,207.54,0.86,-2.7,28.1,0.01,3.51,3.52,91,26,503.7,16.3,-1.6,D,1287.3,5,13.244,1,1.11,154,211.64,-80.13763105,25.91235608,0,0,1,N,1.268976,62,62,11,128,128,207.6854,0,9999.99,3.52,3.647,2,9,24.8,0,24.79999924,37.47,1536.53743,2/4/22,16:20:51,22.55,56.31,37.47,1.044,7.76,-44.2,-3.5,-1.7,-1439,75.1,5.23,12.5,
25.91245417,-80.13756467,45:44.0,2/4/22,7,1.037,213.32,-7.155757217,1.16,218,208.8,1.05,-0.13,28.1,0,3.53,3.53,91,26,503.7,16.3,-1.6,D,1287.3,5,12.723,1,1.1,154,211.97,-80.13763105,25.91235608,0,0,1,N,1.292305,63,63,11,130,130,208.5473,0,9999.99,3.54,3.667,2,9,24.8,0,24.79999924,37.47,1536.53743,2/4/22,16:20:51,22.55,56.31,37.47,1.044,7.76,-44.2,-3.5,-1.7,-1439,75.1,5.23,12.5,
25.91245083,-80.13756733,45:45.0,2/4/22,7,0.839,213.32,-7.155757217,1.16,218.4,209.22,0.93,-3.11,28.2,0,3.53,3.53,91,26,503.6,16.3,-1.6,D,1302.5,5,12.208,1,1.1,154,211.68,-80.13763105,25.91235608,0,0,1,N,1.302204,63,63,11,129,129,208.4788,0,9999.99,3.54,3.667,2,9,24.7,0,24.79999924,37.94,1537.04608,2/4/22,16:20:52,22.53,56.94,37.94,1.073,7.76,-44.2,-4,-0.3,-2459,75,5.21,12.6,
25.91244633,-80.13757075,45:46.0,2/4/22,8,1.087,212.83,-7.155757217,1.16,216.4,207.12,0.92,-1.31,28.2,0.01,3.54,3.55,91,26,503.6,16.3,-1.6,D,1302.5,5,11.708,1,1.09,154,211.01,-80.13763105,25.91235608,0,0,1,N,1.278447,63,63,11,130,130,207.9216,0,9999.99,3.55,3.677,2,9,24.7,0,24.70000076,37.89,1536.7529,2/4/22,16:20:54,22.53,56.88,37.89,1.095,7.75,-43.8,-3.4,0.2,-3981,75.2,5.22,12.5,
25.91244183,-80.13757441,45:47.0,2/4/22,8,1.104,212.07,-7.155757217,1.16,215.5,206.18,0.77,0,28.2,0.01,3.52,3.54,91,26,503.6,16.3,-1.6,D,1302.5,5,11.091,1,1.08,154,210.72,-80.13763105,25.91235608,0,0,1,N,1.251449,62,62,11,134,134,208.0307,0,9999.99,3.53,3.657,2,9,24.7,0,24.70000076,37.89,1536.7529,2/4/22,16:20:54,22.53,56.88,37.89,1.095,7.75,-43.8,-3.4,0.2,-3981,75.2,5.22,12.5,
25.91243783,-80.13757867,45:48.0,2/4/22,8,1.048,213.74,-7.155757217,1.16,216.9,207.65,0.84,-2.01,28.1,0.02,3.54,3.56,91,26,503.6,16.3,-1.6,D,1302.5,5,10.549,1,1.06,154,211.06,-80.13763105,25.91235608,0,0,1,N,1.241204,62,62,11,135,135,208.9049,0,9999.99,3.55,3.677,2,9,24.7,0,24.70000076,37.9,1536.76471,2/4/22,16:20:55,22.54,56.88,37.9,1.054,7.76,-44.2,-4.3,-2.9,-1974,74.9,5.21,12.5,
25.91243317,-80.13758233,45:49.0,2/4/22,8,1.134,211.78,-7.155757217,1.16,215.7,206.39,1.07,0.05,28.2,0.01,3.54,3.55,91,26,503.6,16.3,-1.5,D,1313,5,9.948,1,1.06,154,210.33,-80.13763105,25.91235608,0,0,1,N,1.297243,64,64,11,136,136,208.5135,0,9999.99,3.55,3.677,2,9,24.7,0,24.70000076,38.01,1536.8842,2/4/22,16:20:57,22.54,57.03,38.01,1.086,7.76,-44.2,-4.8,-3.6,-5273,74.6,5.18,12.3,
25.91242815,-80.13758622,45:50.0,2/4/22,8,1.04,210.23,-7.155757217,1.16,215.1,205.76,0.77,-1.18,28.2,0.01,3.52,3.53,91,26,503.6,16.3,-1.5,D,1313,5,9.183,1,1.09,154,209.23,-80.13763105,25.91235608,0,0,1,N,1.259765,62,62,11,136,136,207.9783,0,9999.99,3.53,3.657,2,9,24.7,0,24.70000076,38.01,1536.8842,2/4/22,16:20:57,22.54,57.03,38.01,1.086,7.76,-44.2,-4.8,-3.6,-5273,74.6,5.18,12.3,
25.91242358,-80.13758843,45:51.0,2/4/22,8,1.093,207.97,-7.155757217,1.16,215.5,206.18,1.17,-1.43,28.1,0.01,3.5,3.51,91,26,503.6,16.3,-1.5,D,1313,5,8.631,1,1.1,154,209.6,-80.13763105,25.91235608,0,0,1,N,1.208051,64,64,11,142,142,208.9146,0,9999.99,3.51,3.637,2,9,24.7,0,24.70000076,37.7,1536.54761,2/4/22,16:20:58,22.52,56.62,37.7,1.087,7.76,-44.2,-4.4,-2.9,-942,74.7,5.2,12.5,
25.91241942,-80.13759061,45:51.0,2/4/22,8,1.049,210.38,-7.155757217,1.16,215.2,205.86,1.05,-1.63,28.2,0.01,3.5,3.51,91,26,503.6,16.3,-1.5,D,1314.6,5,8.122,1,1.09,154,209.87,-80.13763105,25.91235608,0,0,1,N,1.089778,63,63,11,142,142,209.7,0,9999.99,3.51,3.637,2,9,24.7,0,24.70000076,37.97,1536.84031,2/4/22,16:20:59,22.53,56.98,37.97,1.09,7.76,-44.3,-4.9,-4.7,-3221,74.5,5.18,12.6,
25.91241483,-80.13759258,45:53.0,2/4/22,8,1.119,209.32,-7.155757217,1.16,215.7,206.39,1.27,-1.76,28.2,0.01,3.5,3.51,91,26,503.6,16.3,-1.5,D,1314.6,5,7.581,1,1.09,154,210.5,-80.13763105,25.91235608,0,0,1,N,0.9850653,65,65,11,145,145,210.8213,0,9999.99,3.51,3.637,2,9,24.7,0,24.70000076,37.83,1536.68841,2/4/22,16:21:00,22.51,56.79,37.83,1.053,7.76,-44.2,-4.2,-2.2,-2751,74.5,5.18,12.5,
25.91241032,-80.13759424,45:54.0,2/4/22,8,1.106,205.84,-7.155757217,1.16,214.9,205.55,1.13,-1.09,28.1,0.01,3.47,3.48,91,26,503.6,16.3,-1.5,D,1314.6,5,7.066,1,1.09,154,211.4,-80.13763105,25.91235608,0,0,1,N,0.8320853,64,64,11,151,151,212.055,0,9999.99,3.48,3.607,2,9,24.7,0,24.70000076,37.83,1536.689,2/4/22,16:21:02,22.5,56.79,37.83,1.079,7.75,-44.1,-3.5,3.7,-4540,74.5,5.18,12.5,
25.91240627,-80.13759728,45:55.0,2/4/22,8,1.081,209.5,-7.155757217,1.16,216.9,207.65,0.92,-0.87,28.2,0.01,3.44,3.45,91,26,503.6,16.3,-1.5,D,1314.6,5,6.522,1,1.07,154,211.18,-80.13763105,25.91235608,0,0,1,N,0.6461981,63,63,11,146,146,212.3007,0,9999.99,3.45,3.577,2,9,24.7,0,24.70000076,37.83,1536.689,2/4/22,16:21:02,22.5,56.79,37.83,1.079,7.75,-44.1,-3.5,3.7,-4540,74.5,5.18,12.5,
25.91240241,-80.13760011,45:56.0,2/4/22,8,1.092,214.5,-7.155757217,1.16,217,207.75,1.21,-0.4,28.2,0.01,3.41,3.42,91,25,503.6,16.3,-1.5,D,1327,5,6.009,1,1.11,154,210.99,-80.13763105,25.91235608,0,0,1,N,0.6268054,64,64,11,146,146,212.5608,0,9999.99,3.42,3.547,2,9,24.7,0,24.70000076,38.07,1536.94842,2/4/22,16:21:03,22.52,57.11,38.07,1.075,7.77,-44.8,-4.2,-1.9,-5339,74.3,5.16,12.5,
25.91239766,-80.13760284,45:57.0,2/4/22,8,1.102,213.66,-7.155757217,1.16,217,207.75,1.2,-3.79,28.2,0.01,3.39,3.4,91,25,503.6,16.3,-1.5,D,1327,6,19.52,1,1.09,154,171.28,-80.13757325,25.91222414,0,0,1,N,4.364028,64,64,11,15,15,179.6521,0,9999.99,3.4,3.527,2,9,24.7,0,24.70000076,37.85,1536.70988,2/4/22,16:21:04,22.51,56.82,37.85,1.083,7.76,-44.2,-4.9,-3.5,-2433,74.4,5.17,12.6,
25.9123944,-80.13760559,45:58.0,2/4/22,8,1.096,220.35,-7.155757217,1.16,214.4,205.02,1.14,-2.26,28.2,0.01,3.37,3.38,91,25,503.6,16.3,-1.5,D,1327,6,19.206,1,1.1,154,170.31,-80.13757325,25.91222414,0,0,1,N,4.010539,62,62,11,22,22,178.3189,0,9999.99,3.38,3.507,2,9,24.7,0,24.70000076,37.83,1536.68806,2/4/22,16:21:06,22.5,56.8,37.83,1.059,7.76,-44.2,-2.9,1.6,-629,74.2,5.16,12.5,
25.91239023,-80.13760804,45:59.1,2/4/22,8,1.108,217.03,-7.155757217,1.16,210.2,200.63,1.19,-2.73,28.2,0.01,3.33,3.34,91,26,503.6,16.3,-1.6,D,1279.2,6,18.793,1,1.09,154,169.33,-80.13757325,25.91222414,0,0,1,N,3.563612,64,64,11,32,32,176.9483,0,9999.99,3.34,3.467,2,9,24.7,0,24.70000076,37.81,1536.66661,2/4/22,16:21:07,22.51,56.76,37.81,1.065,7.76,-44.4,-3.9,-5.6,-3975,74.1,5.16,12.4,
25.91238542,-80.13761023,46:00.1,2/4/22,8,1.081,214.69,-7.155757217,1.16,203.2,193.34,1.43,-0.41,28.2,0.01,3.29,3.3,91,26,503.6,16.3,-1.6,D,1279.2,6,18.311,1,1.08,154,168.35,-80.13757325,25.91222414,0,0,1,N,3.165956,66,66,11,53,53,175.5844,0,9999.99,3.3,3.427,2,9,24.6,0,24.60000038,37.91,1536.53576,2/4/22,16:21:08,22.49,56.89,37.91,1.087,7.76,-44.2,-4.1,-1.5,-2799,74.1,5.15,12.6,
25.91238094,-80.13761194,46:01.1,2/4/22,7,1.044,211.57,-7.155757217,1.16,198.4,188.38,1.61,-0.57,28.2,0.01,3.28,3.29,91,26,503.6,16.3,-1.6,D,1279.2,6,17.859,1,1.06,154,167.49,-80.13757325,25.91222414,0,0,1,N,2.818052,66,66,11,69,69,174.3807,0,9999.99,3.29,3.417,2,9,24.6,0,24.60000038,37.59,1536.18834,2/4/22,16:21:09,22.5,56.47,37.59,1.043,7.76,-44.2,-4.9,-4.1,-3259,74,5.16,12.3,
25.91237594,-80.13761304,46:02.1,2/4/22,7,1.07,203.9,-7.155757217,1.16,194.4,184.27,1.3,0.29,28.2,0.01,3.26,3.26,91,26,503.6,16.3,-1.6,D,1279.2,6,17.342,1,1.06,154,166.73,-80.13757325,25.91222414,0,0,1,N,2.512097,65,65,11,84,84,173.3986,0,9999.99,3.27,3.397,2,9,24.6,0,24.60000038,37.95,1536.57855,2/4/22,16:21:10,22.48,56.95,37.95,1.05,7.76,-44.2,-4.8,-2.7,-1257,74,5.15,12.4,
25.91237079,-80.13761348,46:03.1,2/4/22,7,1.045,198.36,-7.155757217,1.16,190.7,180.48,1.25,-0.65,28.1,0.01,3.23,3.24,91,26,503.5,16.3,-1.5,D,1316,6,16.795,1,1.05,154,166.14,-80.13757325,25.91222414,0,0,1,N,2.257778,65,65,11,96,96,172.6844,0,9999.99,3.24,3.367,2,9,24.6,0,24.60000038,37.27,1535.84159,2/4/22,16:21:11,22.48,56.05,37.27,1.051,7.76,-44.3,-4,-0.2,-3563,74.1,5.17,12.6,
25.91236576,-80.13761359,46:04.1,2/4/22,7,1.039,193.05,-7.155757217,1.16,188.2,177.94,1.23,-1.52,28.2,0.01,3.23,3.24,91,26,503.5,16.3,-1.5,D,1316,6,16.257,1,1.06,154,165.63,-80.13757325,25.91222414,0,0,1,N,2.037027,64,64,11,104,104,172.1042,0,9999.99,3.24,3.367,2,9,24.6,0,24.60000038,38.02,1536.65493,2/4/22,16:21:12,22.48,57.04,38.02,1.064,7.76,-44.2,-4,0.1,-2055,74.1,5.15,12.5,
25.91236063,-80.13761385,46:05.1,2/4/22,7,1.029,191.9,-7.155757217,1.16,186.1,175.81,1.37,-1.29,28.2,0.01,3.21,3.21,91,26,503.5,16.3,-1.5,D,1316,6,15.711,1,1.04,154,165.02,-80.13757325,25.91222414,0,0,1,N,1.803249,65,65,11,109,109,171.2348,0,9999.99,3.22,3.347,2,9,24.6,0,24.60000038,37.29,1535.86306,2/4/22,16:21:13,22.47,56.07,37.29,1.049,7.75,-43.9,-5,-3.8,-4592,74,5.17,12.4,
25.91235563,-80.13761381,46:06.1,2/4/22,7,1.019,188.08,-7.155757217,1.16,183.6,173.28,1.16,-1.09,28.2,0,3.2,3.21,91,26,503.5,16.3,-1.6,D,1304.6,6,15.173,1,1.05,154,164.49,-80.13757325,25.91222414,0,0,1,N,1.601626,64,64,11,113,113,169.8164,0,9999.99,3.21,3.337,2,9,24.6,0,24.60000038,38.28,1536.93619,2/4/22,16:21:14,22.47,57.38,38.28,1.079,7.76,-44.2,-4.6,-1.8,-4109,74,5.13,12.5,
25.91235061,-80.13761382,46:07.1,2/4/22,7,1.104,186.74,-7.155757217,1.16,183.2,172.88,1.03,-2.31,28.2,0.01,3.19,3.2,91,26,503.5,16.3,-1.6,D,1304.6,6,14.637,1,1.05,154,163.9,-80.13757325,25.91222414,0,0,1,N,1.39341,63,63,11,109,109,168.3754,0,9999.99,3.2,3.327,2,9,24.6,0,24.60000038,37.03,1535.58145,2/4/22,16:21:15,22.46,55.73,37.03,1.05,7.76,-44.2,-4,0.9,-3617,74,5.18,12.5,
25.91234544,-80.13761347,46:08.1,2/4/22,8,1.072,183.65,-7.155757217,1.16,181.9,171.57,0.78,-1.45,28.2,0.01,3.16,3.16,91,26,503.5,16.3,-1.6,D,1304.6,6,14.076,1,1.06,154,163.39,-80.13757325,25.91222414,0,0,1,N,1.214364,62,62,11,109,109,167.1254,0,9999.99,3.17,3.297,2,9,24.6,0,24.60000038,38.34,1537.0017,2/4/22,16:21:16,22.48,57.47,38.34,1.078,7.76,-44.2,-3.2,-1.6,-1108,73.8,5.12,12.6,
25.91233996,-80.13761276,46:09.1,2/4/22,8,1.078,182.56,-7.155757217,1.16,180.2,169.87,1.46,-1.01,28.2,0,3.16,3.16,91,26,503.5,16.3,-1.6,D,1304.6,6,13.472,1,1.05,154,162.94,-80.13757325,25.91222414,0,0,1,N,1.058128,66,66,11,112,112,166.0288,0,9999.99,3.17,3.297,2,9,24.6,0,24.60000038,36.95,1535.49483,2/4/22,16:21:17,22.47,55.62,36.95,1.092,7.75,-44.1,-4.9,-4.1,-1402,74,5.18,12.4,
25.91233446,-80.13761192,46:10.2,2/4/22,7,0.998,180.64,-7.155757217,1.16,179.1,168.77,1.29,-2.3,28.2,0.01,3.15,3.16,91,25,503.5,16.3,-1.5,D,1363.8,6,12.862,1,1.06,154,162.5,-80.13757325,25.91222414,0,0,1,N,0.9122423,64,64,11,112,112,164.9991,0,9999.99,3.16,3.287,2,9,24.6,0,24.60000038,38.36,1537.02325,2/4/22,16:21:18,22.49,57.5,38.36,1.06,7.76,-44.2,-4.9,-6.2,35,74,5.13,12.5,
25.91232977,-80.1376111,46:11.2,2/4/22,8,0.961,180.17,-7.155757217,1.16,177.9,167.57,1.02,-1.25,28.3,0.01,3.13,3.14,91,25,503.5,16.3,-1.5,D,1363.8,6,12.341,1,1.07,154,162.14,-80.13757325,25.91222414,0,0,1,N,0.7944683,63,63,11,113,113,164.1656,0,9999.99,3.14,3.267,2,9,24.6,0,24.60000038,37.11,1535.66816,2/4/22,16:21:19,22.49,55.83,37.11,1.068,7.76,-44.2,-3.1,1.2,-4141,73.9,5.17,12.5,
25.91232447,-80.13761051,46:12.2,2/4/22,8,1.072,179.79,-7.155757217,1.16,176.4,166.07,0.93,-1.05,28.3,0.01,3.13,3.14,91,25,503.5,16.3,-1.5,D,1363.8,6,11.762,1,1.06,154,161.53,-80.13757325,25.91222414,0,0,1,N,0.6320624,63,63,11,115,115,163.0114,0,9999.99,3.14,3.267,2,9,24.6,0,24.60000038,38.3,1536.95805,2/4/22,16:21:20,22.52,57.42,38.3,1.088,7.76,-44.2,-3.6,-0.1,-5848,73.8,5.12,12.6,
25.91231948,-80.13760948,46:13.2,2/4/22,8,1.046,177.49,-7.155757217,1.16,175.1,164.78,1.33,-1.05,28.2,0.01,3.1,3.11,91,25,503.5,16.3,-1.5,D,1323.4,6,11.204,1,1.06,154,161.13,-80.13757325,25.91222414,0,0,1,N,0.5229012,65,65,11,116,116,162.2336,0,9999.99,3.11,3.237,2,9,24.6,0,24.60000038,36.92,1535.46205,2/4/22,16:21:21,22.51,55.57,36.92,1.087,7.76,-44.1,-3.2,-0.5,-1990,73.8,5.16,12.4,
25.91231395,-80.13760834,46:14.2,2/4/22,8,1.058,174.54,-7.155757217,1.16,174.2,163.89,1.3,-1.35,28.2,0,3.1,3.1,91,25,503.5,16.3,-1.5,D,1323.4,6,10.585,1,1.06,154,160.64,-80.13757325,25.91222414,0,0,1,N,0.4016122,65,65,11,117,117,161.3678,0,9999.99,3.11,3.237,2,9,24.6,0,24.60000038,38.49,1537.16386,2/4/22,16:21:22,22.53,57.67,38.49,1.067,7.76,-44.2,-3.6,-4.5,-2080,73.6,5.1,12.6,
25.91230896,-80.13760699,46:15.2,2/4/22,7,1.013,172.76,-7.155757217,1.16,173.2,162.9,1.32,-1.47,28.2,0.01,3.09,3.1,91,25,503.5,16.3,-1.5,D,1323.4,6,10.017,1,1.05,154,160.31,-80.13757325,25.91222414,0,0,1,N,0.3229149,64,64,11,119,119,160.8052,0,9999.99,3.1,3.227,2,9,24.6,0,24.60000038,36.98,1535.52706,2/4/22,16:21:23,22.53,55.65,36.98,1.077,7.76,-44.2,-4,1.9,-1992,73.7,5.15,12.6,
